[
    {
        "name":"昂世宴府",
        "location":{
            "lat":30.682287,
            "lng":104.018426
        },
        "address":"四川成都青羊区青羊大道328号（齐力花园大门右侧）",
        "province":"四川省",
        "city":"成都市",
        "area":"青羊区",
        "street_id":"9ea46aed14832006e9f853e6",
        "telephone":"(028)87317333,(028)87385033",
        "detail":1,
        "uid":"9ea46aed14832006e9f853e6"
    },
    {
        "name":"谢老怪",
        "location":{
            "lat":30.66678,
            "lng":104.138428
        },
        "address":"成都成华区崔家店路257号",
        "province":"四川省",
        "city":"成都市",
        "area":"成华区",
        "street_id":"880bd93c5f9433c5adb22ac2",
        "telephone":"(028)64066977",
        "detail":1,
        "uid":"880bd93c5f9433c5adb22ac2"
    },
    {
        "name":"大千河畔",
        "location":{
            "lat":30.780605,
            "lng":103.886631
        },
        "address":"成都市郫都区滨清路5号",
        "province":"四川省",
        "city":"成都市",
        "area":"郫都区",
        "telephone":"(028)62535332",
        "detail":1,
        "uid":"887ccad6297003603fe23198"
    },
    {
        "name":"巴蜀大宅门火锅(新华公园店)",
        "location":{
            "lat":30.66467,
            "lng":104.11286
        },
        "address":"成都成华区新鸿南路75号(近新华公园后门)",
        "province":"四川省",
        "city":"成都市",
        "area":"成华区",
        "street_id":"50fb64ffe9561944e9f85300",
        "telephone":"028-84346222",
        "detail":1,
        "uid":"50fb64ffe9561944e9f85300"
    },
    {
        "name":"太古食代美食广场",
        "location":{
            "lat":30.663697,
            "lng":104.07179
        },
        "address":"成都市青羊区天府广场负1楼",
        "province":"四川省",
        "city":"成都市",
        "area":"青羊区",
        "street_id":"740357ecb555516b31870a24",
        "telephone":"028-87313032",
        "detail":1,
        "uid":"740357ecb555516b31870a24"
    },
    {
        "name":"糯阿糯特色干锅(金沙店)",
        "location":{
            "lat":30.680185,
            "lng":104.02403
        },
        "address":"成都市青羊区双清南路5号一楼附3-5号",
        "province":"四川省",
        "city":"成都市",
        "area":"青羊区",
        "telephone":"(028)87330605",
        "detail":1,
        "uid":"121c5ba88ae26445400245dd"
    },
    {
        "name":"知味家婆菜",
        "location":{
            "lat":30.610543,
            "lng":104.047131
        },
        "address":"四川省成都市武侯区新义路3号附28-28号",
        "province":"四川省",
        "city":"成都市",
        "area":"武侯区",
        "street_id":"1d3c903df64a9273c16c1484",
        "telephone":"13730830833",
        "detail":1,
        "uid":"1d3c903df64a9273c16c1484"
    },
    {
        "name":"香霸头乌鱼片(伏龙小区店)",
        "location":{
            "lat":30.538211,
            "lng":104.063179
        },
        "address":"四川省成都市武侯区其他华阳镇益州大道南段148-152",
        "province":"四川省",
        "city":"成都市",
        "area":"武侯区",
        "street_id":"881a28e7a3a38c5ef842b2aa",
        "telephone":"(028)81440166",
        "detail":1,
        "uid":"881a28e7a3a38c5ef842b2aa"
    },
    {
        "name":"袁记串串香(科华店)",
        "location":{
            "lat":30.638825,
            "lng":104.082461
        },
        "address":"成都市武侯区科华北路8号附9号",
        "province":"四川省",
        "city":"成都市",
        "area":"武侯区",
        "street_id":"669775d03d331342fc0eb093",
        "telephone":"028-85088565;13547906367",
        "detail":1,
        "uid":"669775d03d331342fc0eb093"
    },
    {
        "name":"老城门火锅(三友店)",
        "location":{
            "lat":30.688116,
            "lng":104.09741
        },
        "address":"成都市成华区三友路105",
        "province":"四川省",
        "city":"成都市",
        "area":"成华区",
        "street_id":"ea00251bf7d6933884154134",
        "telephone":"028-83279723",
        "detail":1,
        "uid":"ea00251bf7d6933884154134"
    },
    {
        "name":"何师烧烤(紫荆花尚店)",
        "location":{
            "lat":30.617357,
            "lng":104.057072
        },
        "address":"紫薇东路52号大蓉和旁",
        "province":"四川省",
        "city":"成都市",
        "area":"武侯区",
        "street_id":"658706fd91b3848ebb17e7a4",
        "telephone":"(028)83334898",
        "detail":1,
        "uid":"658706fd91b3848ebb17e7a4"
    },
    {
        "name":"廖老四鹅肠火锅(玉林南街店)",
        "location":{
            "lat":30.629307,
            "lng":104.068716
        },
        "address":"四川省成都市武侯区玉林南街8号-附2号",
        "province":"四川省",
        "city":"成都市",
        "area":"武侯区",
        "street_id":"5d7b4bdd222c325407fef532",
        "telephone":"(028)85581855",
        "detail":1,
        "uid":"72a2f125c6965b7b471a3274"
    },
    {
        "name":"情妹妹干锅锅(春熙店)",
        "location":{
            "lat":30.65711,
            "lng":104.084305
        },
        "address":"红星路4段265-271号",
        "province":"四川省",
        "city":"成都市",
        "area":"锦江区",
        "street_id":"0e6d0169d7322413c2f1cf04",
        "telephone":"(028)86655168",
        "detail":1,
        "uid":"0e6d0169d7322413c2f1cf04"
    },
    {
        "name":"大蓉和蓉和小厨(晶融汇店)",
        "location":{
            "lat":30.657585,
            "lng":104.087731
        },
        "address":"成都市锦江区东大街下东大街段99号晶融汇F3",
        "province":"四川省",
        "city":"成都市",
        "area":"锦江区",
        "street_id":"ac6c11a72ee0382217b54b99",
        "telephone":"(028)83387887",
        "detail":1,
        "uid":"ac6c11a72ee0382217b54b99"
    },
    {
        "name":"如轩海鲜粥(一品天下店)",
        "location":{
            "lat":30.699845,
            "lng":104.03211
        },
        "address":"四川省成都市金牛区一品天下大街267号",
        "province":"四川省",
        "city":"成都市",
        "area":"金牛区",
        "street_id":"8ab0dfc4f7cd380fd8eced7d",
        "telephone":"(028)87561508",
        "detail":1,
        "uid":"8ab0dfc4f7cd380fd8eced7d"
    },
    {
        "name":"味当家创艺厨房(青龙街店)",
        "location":{
            "lat":30.67629,
            "lng":104.071678
        },
        "address":"西府南街35号-附12（铂金城旁远东百货背后）",
        "province":"四川省",
        "city":"成都市",
        "area":"青羊区",
        "street_id":"2143b8485f8e6f69a5da3941",
        "telephone":"(028)86255388,15928537218",
        "detail":1,
        "uid":"1020060f168895bf1894c6dd"
    },
    {
        "name":"重庆袁老四火锅(东大街店)",
        "location":{
            "lat":30.656953,
            "lng":104.086618
        },
        "address":"四川省成都市锦江区东大街28号(太古里对面郁金香广场内)",
        "province":"四川省",
        "city":"成都市",
        "area":"锦江区",
        "street_id":"e37e6b02ea1f136d0f0a7053",
        "telephone":"(028)83333788",
        "detail":1,
        "uid":"e37e6b02ea1f136d0f0a7053"
    },
    {
        "name":"滋滋烤鱼(盐市口店)",
        "location":{
            "lat":30.659208,
            "lng":104.075582
        },
        "address":"大业路11号2楼1号",
        "province":"四川省",
        "city":"成都市",
        "area":"锦江区",
        "street_id":"083a55faa56a9960246e985b",
        "telephone":"(028)61642256",
        "detail":1,
        "uid":"083a55faa56a9960246e985b"
    },
    {
        "name":"自贡好吃客(科华店)",
        "location":{
            "lat":30.634256,
            "lng":104.083297
        },
        "address":"成都武侯区科华北路101号(近川大西门)",
        "province":"四川省",
        "city":"成都市",
        "area":"武侯区",
        "street_id":"72aa251319a1085e077ce850",
        "telephone":"(028)85240535",
        "detail":1,
        "uid":"72aa251319a1085e077ce850"
    },
    {
        "name":"川西元素(红光店)",
        "location":{
            "lat":30.787272,
            "lng":103.946539
        },
        "address":"成都近郊郫都区红光镇正兴路332-340号(近红光佳苑)",
        "province":"四川省",
        "city":"成都市",
        "area":"郫都区",
        "telephone":"(028)66870075,(028)87987718",
        "detail":1,
        "uid":"00f1c7fba5f2bf06c156aca9"
    },
    {
        "name":"你好北柳泰式私房菜",
        "location":{
            "lat":30.628667,
            "lng":104.080953
        },
        "address":"武侯区棕南正街7-4号",
        "province":"四川省",
        "city":"成都市",
        "area":"武侯区",
        "street_id":"f2fbfde8065c89c1bea240df",
        "telephone":"18615785177",
        "detail":1,
        "uid":"f2fbfde8065c89c1bea240df"
    },
    {
        "name":"小熊湖虾工厂(五星上将牛排馆)",
        "location":{
            "lat":30.669361,
            "lng":104.08046
        },
        "address":"大墙西街52号1栋4层401号",
        "province":"四川省",
        "city":"成都市",
        "area":"青羊区",
        "street_id":"8d516dd7cf5077aa3fe231a6",
        "telephone":"028-86916375",
        "detail":1,
        "uid":"8d516dd7cf5077aa3fe231a6"
    },
    {
        "name":"田鸭肠(二环路店)",
        "location":{
            "lat":30.979451,
            "lng":103.9531
        },
        "address":"彭州市朝阳南路208号",
        "province":"四川省",
        "city":"成都市",
        "area":"彭州市",
        "telephone":"(028)83712388",
        "detail":1,
        "uid":"669775d025896b42fd0eb065"
    },
    {
        "name":"灌县老妈砂锅串串(总店)",
        "location":{
            "lat":31.007877,
            "lng":103.629637
        },
        "address":"都江堰外北街57号(农大后门十字沟桥旁)",
        "province":"四川省",
        "city":"成都市",
        "area":"都江堰市",
        "telephone":"(028)87133388",
        "detail":1,
        "uid":"cc68099c29407e6c3c9a5ebd"
    },
    {
        "name":"米二红烧兔",
        "location":{
            "lat":30.511015,
            "lng":104.067289
        },
        "address":"成都市双流区高墩巷68",
        "province":"四川省",
        "city":"成都市",
        "area":"双流区",
        "street_id":"9dbc9cec568d96db49fc8d98",
        "telephone":"13348969649",
        "detail":1,
        "uid":"9dbc9cec568d96db49fc8d98"
    },
    {
        "name":"如轩海鲜粥(双楠店)",
        "location":{
            "lat":30.652346,
            "lng":104.039722
        },
        "address":"四川省成都市武侯区内双楠双元街107号附6号(水保宾馆旁)",
        "province":"四川省",
        "city":"成都市",
        "area":"武侯区",
        "street_id":"f5e3bcaefe8dc6d85e17c347",
        "telephone":"(028)85067708",
        "detail":1,
        "uid":"f5e3bcaefe8dc6d85e17c347"
    },
    {
        "name":"肥肠芋儿鸡",
        "location":{
            "lat":30.667278,
            "lng":104.095685
        },
        "address":"四川省成都市锦江区中道街159号附8号",
        "province":"四川省",
        "city":"成都市",
        "area":"锦江区",
        "street_id":"ba7e04c61ece5c0042d63ebf",
        "telephone":"13688391722",
        "detail":1,
        "uid":"ba7e04c61ece5c0042d63ebf"
    },
    {
        "name":"吉布鲁牛排海鲜自助餐厅(龙湖北城天街店)",
        "location":{
            "lat":30.716568,
            "lng":104.072403
        },
        "address":"成都市金牛区五块石路16-3号龙湖北城天街购物广场F5",
        "province":"四川省",
        "city":"成都市",
        "area":"金牛区",
        "street_id":"5e4fe51cac1824d86ca3cc65",
        "telephone":"(028)68735200",
        "detail":1,
        "uid":"5e4fe51cac1824d86ca3cc65"
    },
    {
        "name":"蜀香园土菜馆",
        "location":{
            "lat":30.561802,
            "lng":103.995259
        },
        "address":"航空港长城路一段187号",
        "province":"四川省",
        "city":"成都市",
        "area":"双流区",
        "street_id":"b0891a80b9684fc709a8d465",
        "telephone":"02885100812,13541276269",
        "detail":1,
        "uid":"b0891a80b9684fc709a8d465"
    },
    {
        "name":"渔人鱼自助生态河鲜火锅(羊犀店)",
        "location":{
            "lat":30.711474,
            "lng":104.012197
        },
        "address":"成都市金牛区蜀跃路2号附16",
        "province":"四川省",
        "city":"成都市",
        "area":"金牛区",
        "street_id":"046d748313b3fdd5ca2915fa",
        "telephone":"(028)61991599,13709037155",
        "detail":1,
        "uid":"046d748313b3fdd5ca2915fa"
    },
    {
        "name":"巴蜀崽火锅(琉璃厂店)",
        "location":{
            "lat":30.595764,
            "lng":104.101082
        },
        "address":"四川省成都市锦江区锦华路三段181号（琉璃立交外300米）",
        "province":"四川省",
        "city":"成都市",
        "area":"锦江区",
        "street_id":"c95d477ca6c82198c33644a6",
        "telephone":"(028)85912838",
        "detail":1,
        "uid":"c95d477ca6c82198c33644a6"
    },
    {
        "name":"红景地",
        "location":{
            "lat":30.69244,
            "lng":104.08889
        },
        "address":"解放西路8号附1号",
        "province":"四川省",
        "city":"成都市",
        "area":"金牛区",
        "street_id":"c16b1a9ab31e7d06f6c59c6e",
        "telephone":"(028)62300263",
        "detail":1,
        "uid":"c16b1a9ab31e7d06f6c59c6e"
    },
    {
        "name":"金丰翔精品湘菜(金牛区)",
        "location":{
            "lat":30.721447,
            "lng":104.036296
        },
        "address":"华丰路180号华侨城商业中心1期",
        "province":"四川省",
        "city":"成都市",
        "area":"金牛区",
        "street_id":"de13e82ea3e17d7a0d3dda25",
        "telephone":"(028)89992666",
        "detail":1,
        "uid":"de13e82ea3e17d7a0d3dda25"
    },
    {
        "name":"三只耳火锅(倪家桥总店)",
        "location":{
            "lat":30.630823,
            "lng":104.06719
        },
        "address":"四川省成都市武侯区倪家桥路10号附1号",
        "province":"四川省",
        "city":"成都市",
        "area":"武侯区",
        "street_id":"3f9337d61e26e0aaf7231058",
        "telephone":"(028)85530188",
        "detail":1,
        "uid":"3f9337d61e26e0aaf7231058"
    },
    {
        "name":"金广阔自助海鲜烤肉",
        "location":{
            "lat":30.633615,
            "lng":104.0833
        },
        "address":"科华北路113号2楼（川大西校门旁青汤麻辣楼上）",
        "province":"四川省",
        "city":"成都市",
        "area":"武侯区",
        "street_id":"08d7b04229691bd9770269f1",
        "telephone":"(028)85939371",
        "detail":1,
        "uid":"08d7b04229691bd9770269f1"
    },
    {
        "name":"大龙燚火锅(新都店)",
        "location":{
            "lat":30.819479,
            "lng":104.182761
        },
        "address":"新都镇蜀龙大道中段808号芙蓉名城1期A座1号(新都太平洋电影城)",
        "province":"四川省",
        "city":"成都市",
        "area":"新都区",
        "street_id":"695854a97681e1f09fec2b4e",
        "telephone":"18190750625",
        "detail":1,
        "uid":"695854a97681e1f09fec2b4e"
    },
    {
        "name":"香天下欢乐火锅(光华村店)",
        "location":{
            "lat":30.669728,
            "lng":104.01478
        },
        "address":"青羊区光华街66号2楼",
        "province":"四川省",
        "city":"成都市",
        "area":"青羊区",
        "street_id":"dc0f0adce4e58b38f92213f1",
        "telephone":"028-87311818",
        "detail":1,
        "uid":"dc0f0adce4e58b38f92213f1"
    },
    {
        "name":"王府国宴",
        "location":{
            "lat":30.798982,
            "lng":103.90767
        },
        "address":"四川省成都市郫都区望丛中路1088号",
        "province":"四川省",
        "city":"成都市",
        "area":"郫都区",
        "street_id":"4eb3b533b8718c08420245a0",
        "telephone":"(028)61778999,(028)61778899",
        "detail":1,
        "uid":"4eb3b533b8718c08420245a0"
    },
    {
        "name":"香豆小厨(春熙路正科甲巷店)",
        "location":{
            "lat":30.662371,
            "lng":104.086279
        },
        "address":"锦江区春熙路正科甲巷76号(科甲大厦、香舍尔酒店旁)",
        "province":"四川省",
        "city":"成都市",
        "area":"锦江区",
        "street_id":"318b12ea43f68f8379b55c64",
        "telephone":"(028)86784008",
        "detail":1,
        "uid":"318b12ea43f68f8379b55c64"
    },
    {
        "name":"北京汉丽轩韩式自助烤肉(SM购物广场)",
        "location":{
            "lat":30.673697,
            "lng":104.119176
        },
        "address":"二环路东段29号SM城市广场4层469号",
        "province":"四川省",
        "city":"成都市",
        "area":"成华区",
        "telephone":"(028)65307222",
        "detail":1,
        "uid":"d2657def9fcb238a3010afd9"
    },
    {
        "name":"大蓉和酒楼(拉德方斯店)",
        "location":{
            "lat":30.58136,
            "lng":104.069653
        },
        "address":"四川省成都市武侯区锦城大道盈创的动力大厦1层",
        "province":"四川省",
        "city":"成都市",
        "area":"武侯区",
        "street_id":"6321eb771b70102d7dc87688",
        "telephone":"(028)85980077",
        "detail":1,
        "uid":"6321eb771b70102d7dc87688"
    },
    {
        "name":"大蓉和酒楼(外双楠店)",
        "location":{
            "lat":30.647094,
            "lng":104.018444
        },
        "address":"四川省成都市武侯区栖霞路46号附40号",
        "province":"四川省",
        "city":"成都市",
        "area":"武侯区",
        "street_id":"c879fa019d795d53c809f0ae",
        "telephone":"028-87060707",
        "detail":1,
        "uid":"c879fa019d795d53c809f0ae"
    },
    {
        "name":"老房子水墨红食府",
        "location":{
            "lat":30.726227,
            "lng":104.044515
        },
        "address":"四川省成都市金牛区西华大道16号(华侨城公园广场内)",
        "province":"四川省",
        "city":"成都市",
        "area":"金牛区",
        "street_id":"c5747b8f9f310165931fc98f",
        "telephone":"(028)87533399,(028)61898733,(028)61898333",
        "detail":1,
        "uid":"c5747b8f9f310165931fc98f"
    },
    {
        "name":"小龙坎老火锅(水碾河店)",
        "location":{
            "lat":30.652736,
            "lng":104.108122
        },
        "address":"锦江区水碾河路24号(重庆鱼火锅西邻)",
        "province":"四川省",
        "city":"成都市",
        "area":"锦江区",
        "street_id":"459b8212fe84f9d6901fc940",
        "telephone":"(028)84420701",
        "detail":1,
        "uid":"459b8212fe84f9d6901fc940"
    },
    {
        "name":"巴蜀大宅门火锅(清江东路店)",
        "location":{
            "lat":30.67424,
            "lng":104.04295
        },
        "address":"成都青羊区清江东路36号",
        "province":"四川省",
        "city":"成都市",
        "area":"青羊区",
        "street_id":"593850fbb7480044df1e5200",
        "telephone":"(028)87322299",
        "detail":1,
        "uid":"593850fbb7480044df1e5200"
    },
    {
        "name":"皇城老妈(皇城总店)",
        "location":{
            "lat":30.627892,
            "lng":104.058651
        },
        "address":"武侯区二环路南三段20号(紫荆电影城附近)",
        "province":"四川省",
        "city":"成都市",
        "area":"武侯区",
        "street_id":"06d2dffda652bfef89f15deb",
        "telephone":"(028)85139999",
        "detail":1,
        "uid":"06d2dffda652bfef89f15deb"
    },
    {
        "name":"温鸭子(锦华店)",
        "location":{
            "lat":30.618474,
            "lng":104.107412
        },
        "address":"成都锦江区锦沙路8号(近沙河大桥)",
        "province":"四川省",
        "city":"成都市",
        "area":"锦江区",
        "street_id":"befdb292773b78f88715416a",
        "telephone":"(028)85952558",
        "detail":1,
        "uid":"befdb292773b78f88715416a"
    },
    {
        "name":"串根香麻辣涮(总店)",
        "location":{
            "lat":30.518424,
            "lng":104.067699
        },
        "address":"四川省成都市双流区正北中街160",
        "province":"四川省",
        "city":"成都市",
        "area":"双流区",
        "street_id":"fd007c5eacf5a76da8f729e1",
        "telephone":"028-85621459",
        "detail":1,
        "uid":"fd007c5eacf5a76da8f729e1"
    },
    {
        "name":"天添饭店(玉林东街店)",
        "location":{
            "lat":30.633378,
            "lng":104.071905
        },
        "address":"成都市武侯区玉林东街16号附18",
        "province":"四川省",
        "city":"成都市",
        "area":"武侯区",
        "street_id":"480b24d07fc96be89cec2b3b",
        "telephone":"(028)85574180",
        "detail":1,
        "uid":"480b24d07fc96be89cec2b3b"
    },
    {
        "name":"独家村土菜馆",
        "location":{
            "lat":30.671526,
            "lng":104.077448
        },
        "address":"顺城大街288号附3号",
        "province":"四川省",
        "city":"成都市",
        "area":"青羊区",
        "street_id":"c6167a4b8e0731532811d1b8",
        "telephone":"(028)86939503",
        "detail":1,
        "uid":"c6167a4b8e0731532811d1b8"
    },
    {
        "name":"简朴寨",
        "location":{
            "lat":30.880158,
            "lng":104.282502
        },
        "address":"近郊青白江区紫荆北街9号(郡第一栋对面)",
        "province":"四川省",
        "city":"成都市",
        "area":"青白江区",
        "street_id":"ecf6d4e26e54b278ad045730",
        "telephone":"18190680686",
        "detail":1,
        "uid":"ecf6d4e26e54b278ad045730"
    },
    {
        "name":"银杏神仙树会馆",
        "location":{
            "lat":30.622451,
            "lng":104.051784
        },
        "address":"紫瑞北街102号",
        "province":"四川省",
        "city":"成都市",
        "area":"武侯区",
        "street_id":"e6a2e71096e0f0fe4d776e2d",
        "telephone":"(028)86666655,(028)87777222",
        "detail":1,
        "uid":"5a10bba5c33d2df09ef7790f"
    },
    {
        "name":"会府小院",
        "location":{
            "lat":30.670891,
            "lng":104.082225
        },
        "address":"忠烈祠西街21号(近太升南路)",
        "province":"四川省",
        "city":"成都市",
        "area":"青羊区",
        "street_id":"a6bf9d02ace9d815c9213d8c",
        "detail":1,
        "uid":"a6bf9d02ace9d815c9213d8c"
    },
    {
        "name":"土灶人家",
        "location":{
            "lat":30.980757,
            "lng":103.640535
        },
        "address":"成都市都江堰市天府大道119号62栋附4号",
        "province":"四川省",
        "city":"成都市",
        "area":"都江堰市",
        "telephone":"028-87279900",
        "detail":1,
        "uid":"7716db9aaf6b8c0102294f6e"
    },
    {
        "name":"徐记家婆菜(二仙桥店)",
        "location":{
            "lat":30.684598,
            "lng":104.128129
        },
        "address":"成都市成华区建设北路三段68号附1",
        "province":"四川省",
        "city":"成都市",
        "area":"成华区",
        "street_id":"75d0881a82ad45543b04b1b2",
        "telephone":"(028)84113558",
        "detail":1,
        "uid":"75d0881a82ad45543b04b1b2"
    },
    {
        "name":"满酝厨土菜馆",
        "location":{
            "lat":30.807361,
            "lng":103.896682
        },
        "address":"其他和顺巷43-49号",
        "province":"四川省",
        "city":"成都市",
        "area":"郫都区",
        "street_id":"f17275fbdaf3a31e3586f429",
        "telephone":"(028)87988969",
        "detail":1,
        "uid":"f17275fbdaf3a31e3586f429"
    },
    {
        "name":"金沙元年川菜食府(遗址路店)",
        "location":{
            "lat":30.68651,
            "lng":104.016069
        },
        "address":"成都市青羊区金沙遗址路2号(金沙遗址博物馆南大门侧)",
        "province":"四川省",
        "city":"成都市",
        "area":"青羊区",
        "street_id":"93df0dc361d45c32882fb5c3",
        "telephone":"028-80303888;028-80330888",
        "detail":1,
        "uid":"93df0dc361d45c32882fb5c3"
    },
    {
        "name":"香霸头乌鱼片(总店)",
        "location":{
            "lat":30.533291,
            "lng":104.071881
        },
        "address":"其他华府大道一段6号左岸花都幼儿园旁(橄榄树歌城旁)",
        "province":"四川省",
        "city":"成都市",
        "area":"双流区",
        "street_id":"d6c5d9917be485f130169bca",
        "telephone":"(028)85634671",
        "detail":1,
        "uid":"d6c5d9917be485f130169bca"
    },
    {
        "name":"何师烧烤(高升店)",
        "location":{
            "lat":30.647358,
            "lng":104.04507
        },
        "address":"成都武侯区高升桥路10号(加油站旁)",
        "province":"四川省",
        "city":"成都市",
        "area":"武侯区",
        "street_id":"593850fbb6d10744de1e5289",
        "telephone":"(028)85098189",
        "detail":1,
        "uid":"593850fbb6d10744de1e5289"
    },
    {
        "name":"大蓉和卓锦小餐(高新店)",
        "location":{
            "lat":30.55873,
            "lng":104.066911
        },
        "address":"武侯区天府二街368号(绿地之窗3楼)",
        "province":"四川省",
        "city":"成都市",
        "area":"武侯区",
        "telephone":"(028)85000098",
        "detail":1,
        "uid":"5290a0305c869d8f132935fe"
    }
]